  [
    {
      "address" : "Calle de José Gutiérrez Abascal-28006 Madrid Madrid-Spain",
      "latitude" : 40.439532,
      "longitude" : -3.690279,
      "name" : "Abascal Olmedo"
    },
    {
      "address" : "Calle de Madrid-28005 Madrid Madrid-Spain",
      "latitude" : 40.4149148,
      "longitude" : -3.7108331217646455,
      "name" : "África Food Madrid"
    },
    {
      "address" : "Madrid Madrid-Spain",
      "latitude" : 40.4192127,
      "longitude" : -3.692517,
      "name" : "África Fusión"
    },
    {
      "address" : "Madrid Madrid-Spain",
      "latitude" : 40.4192127,
      "longitude" : -3.692517,
      "name" : "Aloha Poké"
    },
    {
      "address" : "Calle de Lavapies",
      "latitude" : 40.41032249490032,
      "longitude" : -3.7025370944684375,
      "name" : "Amanda Café"
    },
    {
      "address" : "Calle del Amor de Dios-28014 Madrid Madrid-Spain",
      "latitude" : 40.4127425,
      "longitude" : -3.6984199,
      "name" : "Amor Voodoo"
    },
    {
      "address" : "Calle de Lavapies",
      "latitude" : 40.41032249490032,
      "longitude" : -3.7025370944684375,
      "name" : "Anarkoli"
    },
    {
      "address" : "Calle de Lavapies-28012 Madrid Madrid-Spain",
      "latitude" : 40.41032249490032,
      "longitude" : -3.7025370944684375,
      "name" : "Apululu"
    },
    {
      "address" : "Calle Tribulete-28012 Madrid Madrid-Spain",
      "latitude" : 40.40751971657789,
      "longitude" : -3.7031622218288516,
      "name" : "Arroces Tribulete"
    },
    {
      "address" : "Calle de Lavapies-28012 Madrid Madrid-Spain",
      "latitude" : 40.41032249490032,
      "longitude" : -3.7025370944684375,
      "name" : "Baisakhi"
    },
    {
      "address" : "Calle de Lavapies-28012 Madrid Madrid-Spain",
      "latitude" : 40.41032249490032,
      "longitude" : -3.7025370944684375,
      "name" : "Bombay Palace"
    },
    {
      "address" : "Calle de Barbieri-28004 Madrid Madrid-Spain",
      "latitude" : 40.4206241,
      "longitude" : -3.6983132,
      "name" : "Café Barbieri"
    },
    {
      "address" : "Calle de Lavapies-28012 Madrid Madrid-Spain",
      "latitude" : 40.41032249490032,
      "longitude" : -3.7025370944684375,
      "name" : "Café Dieli"
    },
    {
      "address" : "Calle de Santa Ana-28005 Madrid Madrid-Spain",
      "latitude" : 40.40947011296754,
      "longitude" : -3.7090754203531175,
      "name" : "Café Santay"
    },
    {
      "address" : "Calle de Lavapies-28012 Madrid Madrid-Spain",
      "latitude" : 40.41032249490032,
      "longitude" : -3.7025370944684375,
      "name" : "Calcuta"
    },
    {
      "address" : "Calle del Calvario-28012 Madrid Madrid-Spain",
      "latitude" : 40.411454046306524,
      "longitude" : -3.7026815105842297,
      "name" : "Calvario"
    },
    {
      "address" : "Calle de Lavapies-28012 Madrid Madrid-Spain",
      "latitude" : 40.41032249490032,
      "longitude" : -3.7025370944684375,
      "name" : "Caminito"
    },
    {
      "address" : "",
      "latitude" : 0,
      "longitude" : 0,
      "name" : "Carmencita Brunch Lavapiés"
    },
    {
      "address" : "Calle de Cáceres-28045 Madrid Madrid-Spain",
      "latitude" : 40.3990943,
      "longitude" : -3.7010819,
      "name" : "Casa Calores"
    },
    {
      "address" : "Calle de Lavapies",
      "latitude" : 40.41032249490032,
      "longitude" : -3.7025370944684375,
      "name" : "Casa Jaguar Café"
    },
    {
      "address" : "",
      "latitude" : 0,
      "longitude" : 0,
      "name" : "Casa Jaguar Mercado"
    },
    {
      "address" : "Plaza de Lavapies-28012 Madrid Madrid-Spain",
      "latitude" : 40.408764005931175,
      "longitude" : -3.7012219059311766,
      "name" : "Casa María"
    },
    {
      "address" : "Calle del Casino-28005 Madrid Madrid-Spain",
      "latitude" : 40.40656892668949,
      "longitude" : -3.7056619229280225,
      "name" : "Casino Kebab"
    },
    {
      "address" : "Calle de Lavapies",
      "latitude" : 40.41032249490032,
      "longitude" : -3.7025370944684375,
      "name" : "Chinaski"
    },
    {
      "address" : "Calle de Lavapies",
      "latitude" : 40.41032249490032,
      "longitude" : -3.7025370944684375,
      "name" : "Citynizer"
    },
    {
      "address" : "Calle de Lavapies-28012 Madrid Madrid-Spain",
      "latitude" : 40.41032249490032,
      "longitude" : -3.7025370944684375,
      "name" : "Cutzamala Mex Food"
    },
    {
      "address" : "Calle de Lavapies-28012 Madrid Madrid-Spain",
      "latitude" : 40.41032249490032,
      "longitude" : -3.7025370944684375,
      "name" : "Daaraji"
    },
    {
      "address" : "Calle de Lavapies-28012 Madrid Madrid-Spain",
      "latitude" : 40.4121665,
      "longitude" : -3.7031729,
      "name" : "Dakar"
    },
    {
      "address" : "Calle de Lavapies-28012 Madrid Madrid-Spain",
      "latitude" : 40.41032249490032,
      "longitude" : -3.7025370944684375,
      "name" : "Darbuka"
    },
    {
      "address" : "Calle de Lavapies-28012 Madrid Madrid-Spain",
      "latitude" : 40.41032249490032,
      "longitude" : -3.7025370944684375,
      "name" : "Delhi Darbar"
    },
    {
      "address" : "Calle de Lavapies-28012 Madrid Madrid-Spain",
      "latitude" : 40.4121665,
      "longitude" : -3.7031729,
      "name" : "Delhi Express"
    },
    {
      "address" : "Plaza del Verano-28022 Madrid Madrid-Spain",
      "latitude" : 40.44260905109236,
      "longitude" : -3.5716524304566635,
      "name" : "Distrito Vegano"
    },
    {
      "address" : "Madrid Madrid-Spain",
      "latitude" : 40.4085379,
      "longitude" : -3.7007246,
      "name" : "Divino"
    },
    {
      "address" : "Calle de Lavapies",
      "latitude" : 40.4121665,
      "longitude" : -3.7031729,
      "name" : "El Colmado"
    },
    {
      "address" : "Calle del Mar del Japón-28033 Madrid Madrid-Spain",
      "latitude" : 40.4737712795307,
      "longitude" : -3.641203672094983,
      "name" : "El Jamón"
    },
    {
      "address" : "Calle de Lavapies-28012 Madrid Madrid-Spain",
      "latitude" : 40.41032249490032,
      "longitude" : -3.7025370944684375,
      "name" : "El Jardín de Lavapiés"
    },
    {
      "address" : "Calle de Lavapies",
      "latitude" : 40.4121665,
      "longitude" : -3.7031729,
      "name" : "El Perenquén"
    },
    {
      "address" : "Calle de Don Quijote-28020 Madrid Madrid-Spain",
      "latitude" : 40.4468723,
      "longitude" : -3.6993188,
      "name" : "El Quijote"
    },
    {
      "address" : "Calle de Lavapies",
      "latitude" : 40.4121665,
      "longitude" : -3.7031729,
      "name" : "El Rincón de Ores"
    },
    {
      "address" : "",
      "latitude" : 0,
      "longitude" : 0,
      "name" : "El Rincón de Ruda"
    },
    {
      "address" : "Plaza del Encuentro-28030 Madrid Madrid-Spain",
      "latitude" : 40.4056332,
      "longitude" : -3.6517471,
      "name" : "Encuentros Bar"
    },
    {
      "address" : "Calle de Lavapies-28012 Madrid Madrid-Spain",
      "latitude" : 40.41032249490032,
      "longitude" : -3.7025370944684375,
      "name" : "Falafelería"
    },
    {
      "address" : "Calle de Lavapies",
      "latitude" : 40.41032249490032,
      "longitude" : -3.7025370944684375,
      "name" : "Galipán"
    },
    {
      "address" : "Calle de Lavapies-28012 Madrid Madrid-Spain",
      "latitude" : 40.41032249490032,
      "longitude" : -3.7025370944684375,
      "name" : "Garibaldi"
    },
    {
      "address" : "Calle de Lavapies",
      "latitude" : 40.41032249490032,
      "longitude" : -3.7025370944684375,
      "name" : "Gatopiés"
    },
    {
      "address" : "Calle de Lavapies",
      "latitude" : 40.41032249490032,
      "longitude" : -3.7025370944684375,
      "name" : "Gracias Vieja"
    },
    {
      "address" : "Calle de Lavapies-28012 Madrid Madrid-Spain",
      "latitude" : 40.4121665,
      "longitude" : -3.7031729,
      "name" : "Hartem"
    },
    {
      "address" : "Calle de Lavapies",
      "latitude" : 40.4121665,
      "longitude" : -3.7031729,
      "name" : "Hopes"
    },
    {
      "address" : "Calle de Lavapies-28012 Madrid Madrid-Spain",
      "latitude" : 40.4121665,
      "longitude" : -3.7031729,
      "name" : "Il Morto Che Parla"
    },
    {
      "address" : "",
      "latitude" : 0,
      "longitude" : 0,
      "name" : "Indian Masala"
    },
    {
      "address" : "Calle de Lavapies",
      "latitude" : 40.4121665,
      "longitude" : -3.7031729,
      "name" : "Jam"
    },
    {
      "address" : "Calle de Lavapies-28012 Madrid Madrid-Spain",
      "latitude" : 40.41032249490032,
      "longitude" : -3.7025370944684375,
      "name" : "Kaldi Café"
    },
    {
      "address" : "Calle de Lavapies-28012 Madrid Madrid-Spain",
      "latitude" : 40.4121665,
      "longitude" : -3.7031729,
      "name" : "Kebab Lavapiés"
    },
    {
      "address" : "Calle de Lavapies-28012 Madrid Madrid-Spain",
      "latitude" : 40.4121665,
      "longitude" : -3.7031729,
      "name" : "K-SDAL"
    },
    {
      "address" : "",
      "latitude" : 0,
      "longitude" : 0,
      "name" : "La Alparagata Vegana"
    },
    {
      "address" : "Calle de Gabriel Lobo-28002 Madrid Madrid-Spain",
      "latitude" : 40.44305564063811,
      "longitude" : -3.680505269233344,
      "name" : "La Buga del Lobo"
    },
    {
      "address" : "Calle de Lavapies-28012 Madrid Madrid-Spain",
      "latitude" : 40.4121665,
      "longitude" : -3.7031729,
      "name" : "La Chingada MX"
    },
    {

      "address" : "Calle de Madrid--28005 Madrid Madrid--Spain",
      "latitude" : 40.4149148,
      "longitude" : -3.7108331217646455,
      "name" : "La Chulapa en Mayrit"
    },
    {
      "address" : "Calle de Lavapies-28012 Madrid Madrid-Spain",
      "latitude" : 40.4121665,
      "longitude" : -3.7031729,
      "name" : "La Cucusa"
    },
    {
      "address" : "Calle de Espronceda-28003 Madrid Madrid-Spain",
      "latitude" : 40.4406775,
      "longitude" : -3.6984632,
      "name" : "La de Espronceda"
    },
    {
      "address" : "Calle de la Encomienda-28012 Madrid Madrid-Spain",
      "latitude" : 40.41073896252113,
      "longitude" : -3.7057546975730586,
      "name" : "La Encomienda"
    },
    {
      "address" : "Calle de Lavapies-28012 Madrid Madrid-Spain",
      "latitude" : 40.4121665,
      "longitude" : -3.7031729,
      "name" : "La Fille du Poulet"
    },
    {
      "address" : "Calle de Lavapies-28012 Madrid Madrid-Spain",
      "latitude" : 40.4121665,
      "longitude" : -3.7031729,
      "name" : "La India Tetería"
    },
    {
      "address" : "Calle de Lavapies-28012 Madrid Madrid-Spain",
      "latitude" : 40.4121665,
      "longitude" : -3.7031729,
      "name" : "La Inquilina"
    },
    {
      "address" : "Plaza de Cascorro-28005 Madrid Madrid-Spain",
      "latitude" : 40.4107654,
      "longitude" : -3.7070462,
      "name" : "La Lata de Cascorro"
    },
    {
      "address" : "",
      "latitude" : 0,
      "longitude" : 0,
      "name" : "La Marimala de Lavapiés"
    },
    {
      "address" : "",
      "latitude" : 0,
      "longitude" : 0,
      "name" : "La Mercadería de Antón Martín"
    },
    {
      "address" : "Plaza de Lavapies-28012 Madrid Madrid-Spain",
      "latitude" : 40.408764005931175,
      "longitude" : -3.7012219059311766,
      "name" : "La Playa de Lavapiés"
    },
    {
      "address" : "Calle de la Sal-28012 Madrid Madrid-Spain",
      "latitude" : 40.4157466,
      "longitude" : -3.706457,
      "name" : "La Sal"
    },
    {
      "address" : "Calle de Lavapies-28012 Madrid Madrid-Spain",
      "latitude" : 40.4121665,
      "longitude" : -3.7031729,
      "name" : "La Tranca"
    },
    {
      "address" : "Madrid Madrid-Spain",
      "latitude" : 40.4192127,
      "longitude" : -3.692517,
      "name" : "La Yapa Empanadas Argentinas"
    },
    {
      "address" : "Calle de Lavapies-28012 Madrid Madrid-Spain",
      "latitude" : 40.4121665,
      "longitude" : -3.7031729,
      "name" : "Latazo"
    },
    {
      "address" : "Calle de Lavapies-28012 Madrid Madrid-Spain",
      "latitude" : 40.4121665,
      "longitude" : -3.7031729,
      "name" : "Le Croustillant"
    },
    {
      "address" : "Calle de Lavapies-28012 Madrid Madrid-Spain",
      "latitude" : 40.41032249490032,
      "longitude" : -3.7025370944684375,
      "name" : "Liberté Café"
    },
    {
      "address" : "Calle de Lavapies-28012 Madrid Madrid-Spain",
      "latitude" : 40.41032249490032,
      "longitude" : -3.7025370944684375,
      "name" : "Limonzello"
    },
    {
      "address" : "Calle de Lavapies-28012 Madrid Madrid-Spain",
      "latitude" : 40.41032249490032,
      "longitude" : -3.7025370944684375,
      "name" : "Lingueer Saveurs d'Afrik"
    },
    {
      "address" : "",
      "latitude" : 0,
      "longitude" : 0,
      "name" : "Lonja Agroecológica"
    },
    {
      "address" : "",
      "latitude" : 0,
      "longitude" : 0,
      "name" : "Lonja de la Corrala"
    },
    {
      "address" : "Calle de López Silva-28005 Madrid Madrid-Spain",
      "latitude" : 40.40991882923998,
      "longitude" : -3.708851769674274,
      "name" : "López & López"
    },
    {
      "address" : "Plaza de Lavapies-28012 Madrid Madrid-Spain",
      "latitude" : 40.408764005931175,
      "longitude" : -3.7012219059311766,
      "name" : "Los Gamos"
    },
    {
      "address" : "Plaza de Lavapies-28012 Madrid Madrid-Spain",
      "latitude" : 40.408764005931175,
      "longitude" : -3.7012219059311766,
      "name" : "Los Rotos de Lavapiés"
    },
    {
      "address" : "Calle de Lavapies-28012 Madrid Madrid-Spain",
      "latitude" : 40.41032249490032,
      "longitude" : -3.7025370944684375,
      "name" : "Macanudos"
    },
    {
      "address" : "Calle de Lavapies-28012 Madrid Madrid-Spain",
      "latitude" : 40.41032249490032,
      "longitude" : -3.7025370944684375,
      "name" : "Majo's Food"
    },
    {
      "address" : "Calle de Lavapies-28012 Madrid Madrid-Spain",
      "latitude" : 40.41032249490032,
      "longitude" : -3.7025370944684375,
      "name" : "Maldito Querer"
    },
    {
      "address" : "Plaza de Nelson Mandela-28012 Madrid Madrid-Spain",
      "latitude" : 40.4098681,
      "longitude" : -3.7037154,
      "name" : "Mandela 100"
    },
    {
      "address" : "Calle de Lavapies-28012 Madrid Madrid-Spain",
      "latitude" : 40.41032249490032,
      "longitude" : -3.7025370944684375,
      "name" : "Mapenda"
    },
    {
      "address" : "Calle de Lavapies-28012 Madrid Madrid-Spain",
      "latitude" : 40.4121665,
      "longitude" : -3.7031729,
      "name" : "Mesón Los Platos"
    },
    {
      "address" : "Calle de Lavapies-28012 Madrid Madrid-Spain",
      "latitude" : 40.41032249490032,
      "longitude" : -3.7025370944684375,
      "name" : "Moñetes Panino Italiano"
    },
    {
      "address" : "Plaza de Lavapies, 1-28012 Madrid Madrid-Spain",
      "latitude" : 40.4090333,
      "longitude" : -3.7008171,
      "name" : "One Love"
    },
    {
      "address" : "Calle de Lavapies-28012 Madrid Madrid-Spain",
      "latitude" : 40.41032249490032,
      "longitude" : -3.7025370944684375,
      "name" : "Orishas"
    },
    {
      "address" : "Calle de Lavapies-28012 Madrid Madrid-Spain",
      "latitude" : 40.41032249490032,
      "longitude" : -3.7025370944684375,
      "name" : "Otoman Kebab"
    },
    {
      "address" : "Madrid Madrid--Spain",
      "latitude" : 40.4192127,
      "longitude" : -3.692517,
      "name" : "Pakistaní Restaurante"
    },
    {
      "address" : "Plaza de Lavapies-28012 Madrid Madrid-Spain",
      "latitude" : 40.408764005931175,
      "longitude" : -3.7012219059311766,
      "name" : "Pirámide"
    },
    {
      "address" : "Calle de Lavapies-28012 Madrid Madrid-Spain",
      "latitude" : 40.41032249490032,
      "longitude" : -3.7025370944684375,
      "name" : "Portomarín"
    },
    {
      "address" : "Calle de Lavapies-28012 Madrid Madrid-Spain",
      "latitude" : 40.41032249490032,
      "longitude" : -3.7025370944684375,
      "name" : "Preity Raj"
    },
    {
      "address" : "Calle de Lavapies-28012 Madrid Madrid-Spain",
      "latitude" : 40.41032249490032,
      "longitude" : -3.7025370944684375,
      "name" : "Primadonna"
    },
    {
      "address" : "Calle de Lavapies-28012 Madrid Madrid-Spain",
      "latitude" : 40.41032249490032,
      "longitude" : -3.7025370944684375,
      "name" : "Raj Puth"
    },
    {
      "address" : "",
      "latitude" : 0,
      "longitude" : 0,
      "name" : "Raja Hindustaní"
    },
    {
      "address" : "Calle de Lavapies-28012 Madrid Madrid-Spain",
      "latitude" : 40.41032249490032,
      "longitude" : -3.7025370944684375,
      "name" : "Rincón Guay"
    },
    {
      "address" : "Calle de Lavapies-28012 Madrid Madrid-Spain",
      "latitude" : 40.41032249490032,
      "longitude" : -3.7025370944684375,
      "name" : "Serendipia"
    },
    {
      "address" : "Calle de Lavapies-28012 Madrid Madrid-Spain",
      "latitude" : 40.4121665,
      "longitude" : -3.7031729,
      "name" : "Shapla I"
    },
    {
      "address" : "Plaza Isabel II--28013 Madrid Madrid--Spain",
      "latitude" : 40.41831793167181,
      "longitude" : -3.7092834599107287,
      "name" : "Shapla II"
    },
    {
      "address" : "Calle de Lavapies--28012 Madrid Madrid--Spain",
      "latitude" : 40.4121665,
      "longitude" : -3.7031729,
      "name" : "Sonali"
    },
    {
      "address" : "",
      "latitude" : 0,
      "longitude" : 0,
      "name" : "Souksou"
    },
    {
      "address" : "Calle de Lavapies--28012 Madrid Madrid--Spain",
      "latitude" : 40.4121665,
      "longitude" : -3.7031729,
      "name" : "Sr. Matambre"
    },
    {
      "address" : "Calle de Lavapies--28012 Madrid Madrid--Spain",
      "latitude" : 40.41032249490032,
      "longitude" : -3.7025370944684375,
      "name" : "Taj Mahal"
    },
    {
      "address" : "Calle de Lavapies--28012 Madrid Madrid--Spain",
      "latitude" : 40.41032249490032,
      "longitude" : -3.7025370944684375,
      "name" : "Tal Qual"
    },
    {
      "address" : "Calle Tapicería--28037 Madrid Madrid--Spain",
      "latitude" : 40.4244628,
      "longitude" : -3.6218874,
      "name" : "Tapiquería"
    },
    {
      "address" : "",
      "latitude" : 0,
      "longitude" : 0,
      "name" : "Tetería Babel"
    },
    {
      "address" : "",
      "latitude" : 0,
      "longitude" : 0,
      "name" : "Ven Ven Ven"
    },
    {
      "address" : "Calle de Lavapies--28012 Madrid Madrid--Spain",
      "latitude" : 40.41032249490032,
      "longitude" : -3.7025370944684375,
      "name" : "Viva Chapata"
    },
    {
      "address" : "Calle de Lavapies--28012 Madrid Madrid--Spain",
      "latitude" : 40.41032249490032,
      "longitude" : -3.7025370944684375,
      "name" : "Xantico"
    },
    {
      "address" : "",
      "latitude" : 0,
      "longitude" : 0,
      "name" : "Zerotrenta"
    },
    {
      "address" : "Plaza de Ortega y Munilla--28005 Madrid Madrid--Spain",
      "latitude" : 40.40253928699577,
      "longitude" : -3.7114507519271367,
      "name" : "Bendito Vinos y Vinilos"
    },
    {
      "address" : "Calle de Lavapies--28012 Madrid Madrid--Spain",
      "latitude" : 40.4121665,
      "longitude" : -3.7031729,
      "name" : "La Chaskona Bar"
    }
  ]
